,City,Country,Latitude,Longitude,Max Temperature (F),Humidity (%),Cloudiness (%),Wind Speed (mph),Date
0,vaini,TO,-21.2,-175.2,84.2,84,75,5.75,1619144226
3,kapaa,US,22.0752,-159.319,79,65,20,10.36,1619144227
4,provideniya,RU,64.3833,-173.3,41,48,0,11.18,1619144227
5,egvekinot,RU,66.3167,-179.1667,30.16,81,21,1.21,1619144227
7,alofi,NU,-19.0595,-169.9187,84.2,74,40,11.5,1619144228
11,bethel,US,41.3712,-73.414,39.2,48,1,13.8,1619144229
12,lavrentiya,RU,65.5833,-171,33.89,74,100,1.68,1619144229
13,barrow,US,71.2906,-156.7887,26.6,68,1,6.91,1619144229
14,mataura,PF,-46.1927,168.8643,55,85,100,10,1619144229
15,avarua,CK,-21.2078,-159.775,82.4,69,20,18.41,1619144229
16,faanui,PF,-16.4833,-151.75,81.3,73,12,13.76,1619144229
18,hilo,US,19.7297,-155.09,80.6,54,75,9.22,1619144230
19,ewa beach,US,21.3156,-158.0072,84.2,47,90,4.61,1619144230
20,kodiak,US,57.79,-152.4072,42.8,93,90,12.66,1619144230
21,teahupoo,PF,-17.8333,-149.2667,87.8,62,75,6.91,1619144230
22,fare,PF,-16.7,-151.0167,80.78,74,10,13.31,1619144230
23,atuona,PF,-9.8,-139.0333,80.64,80,85,21.09,1619144231
24,kahului,US,20.8947,-156.47,82.4,54,20,20.71,1619144134
25,sterling,US,39.0062,-77.4286,43,49,75,4.61,1619144231
26,college,US,64.8569,-147.8028,53.6,40,1,11.5,1619144231
27,rikitea,PF,-23.1203,-134.9692,78.04,77,100,14.36,1619144231
28,fortuna,US,40.5982,-124.1573,53.01,87,20,13.8,1619144181
29,sitka,US,57.0531,-135.33,48.2,66,75,4.61,1619144231
30,haines junction,CA,60.7522,-137.5108,50,20,0,2.3,1619144231
31,mayo,CA,38.8876,-76.5119,44.01,59,96,9.69,1619144232
32,aklavik,CA,68.2191,-135.0107,24.8,46,97,3.44,1619144232
33,tuktoyaktuk,CA,69.4541,-133.0374,12.2,73,20,3.44,1619144232
34,guerrero negro,MX,27.9769,-114.0611,60.55,67,0,18.12,1619144232
35,lompoc,US,34.6391,-120.4579,53.6,71,1,10.36,1619144129
36,pacific grove,US,36.6177,-121.9166,52,90,70,1.01,1619144232
37,pacifica,US,37.6138,-122.4869,51.01,87,90,8.05,1619144232
38,newport,US,51.5877,-2.9984,39.99,60,0,9.22,1619144232
39,port hardy,CA,50.6996,-127.4199,57.2,41,40,10.36,1619144233
40,prince rupert,CA,54.3161,-130.3201,53.6,37,1,6.91,1619144233
41,juneau,US,58.3019,-134.4197,57.2,18,20,11.5,1619144171
42,norman wells,CA,65.282,-126.8329,28.4,54,75,9.22,1619144233
43,punta arenas,CL,-53.15,-70.9167,46.4,93,75,6.91,1619144233
44,cabo san lucas,MX,22.8909,-109.9124,75.99,33,40,11.5,1619144233
45,constitucion,MX,-35.3333,-72.4167,53.58,84,2,8.88,1619144233
46,rosarito,MX,32.3333,-117.0333,59,82,75,6.91,1619144233
47,santa maria,US,-29.6842,-53.8069,66.2,77,0,11.5,1619144234
48,sun valley,US,39.5963,-119.776,64.4,24,40,16.11,1619144144
49,hermiston,US,45.8404,-119.2895,66,36,1,18.41,1619144234
50,peachland,CA,49.7665,-119.7357,55.4,21,0,8.05,1619144234
51,beaverlodge,CA,55.2166,-119.4361,35.6,44,40,6.91,1619144234
52,fort nelson,CA,58.8053,-122.7002,39.2,26,40,5.75,1619144234
53,hay river,CA,60.8156,-115.7999,21.2,53,100,9.22,1619144234
54,castro,CL,-24.7911,-50.0119,52.52,94,13,3.58,1619144234
55,puerto ayora,EC,-0.7393,-90.3518,77,93,43,3,1619144235
56,ixtapa,MX,20.7,-105.2,78.8,73,40,6.91,1619144235
57,coahuayana,MX,18.7333,-103.6833,72.25,70,99,1.16,1619144235
58,san patricio,MX,28.017,-97.5169,73.4,88,90,12.66,1619144235
59,la paz,MX,-16.5,-68.15,42.8,81,40,4.61,1619144082
60,cumpas,MX,29.9833,-109.7833,68.43,20,0,15.05,1619144235
61,winslow,US,35.0242,-110.6974,60.8,18,1,11.5,1619144235
62,price,US,39.5994,-110.8107,53.6,19,1,11.5,1619144235
63,livingston,US,55.9029,-3.5226,41,93,100,0.29,1619144235
64,maple creek,CA,49.9168,-109.4848,35.6,38,100,17.27,1619144236
66,yellowknife,CA,62.456,-114.3525,15.01,57,90,16.11,1619144236
67,qaanaaq,GL,77.484,-69.3632,17.51,78,100,7.99,1619144236
68,ancud,CL,-41.8697,-73.8203,51.01,100,90,8.05,1619144236
69,lebu,CL,-37.6167,-73.65,50.79,77,44,2.1,1619144236
70,puerto escondido,MX,15.85,-97.0667,82.4,78,40,6.91,1619144236
71,acapulco,MX,16.8634,-99.8901,80.6,74,1,5.75,1619144236
72,temascalcingo,MX,19.9167,-100,69.01,32,100,1.99,1619144237
73,galeana,MX,24.8333,-100.0667,66,51,24,14,1619144237
74,uvalde,US,29.3669,-99.767,66.2,88,90,8.05,1619144237
75,elk city,US,35.412,-99.4043,44.6,100,90,18.41,1619144237
76,lexington,US,37.9887,-84.4777,44.6,45,1,5.12,1619144237
77,pierre,US,44.3683,-100.351,44.01,81,90,9.22,1619144237
78,brandon,CA,27.9378,-82.2859,72,68,1,11.03,1619143984
79,the pas,CA,53.8251,-101.2541,26.6,59,90,13.8,1619144237
80,thompson,CA,55.7435,-97.8558,17.6,67,75,11.5,1619144238
81,ushuaia,AR,-54.8,-68.3,41,93,75,11.5,1619144238
83,pisco,PE,-13.7,-76.2167,66.99,82,0,10.36,1619144238
84,huarmey,PE,-10.0681,-78.1522,68.27,85,0,10.38,1619144238
85,san cristobal,EC,7.7669,-72.225,82.4,69,20,3.44,1619143974
86,la libertad,SV,-2.2333,-80.9,73.99,83,87,6.82,1619144239
87,san agustin acasaguastlan,GT,14.95,-89.9667,62.01,65,91,4,1619144239
88,hecelchakan,MX,20.1667,-90.1333,78.89,65,40,1.39,1619144239
89,progreso,MX,21.2833,-89.6667,82.4,69,75,9.22,1619144239
90,chalmette,US,29.9427,-89.9634,63,55,1,9.22,1619144239
91,southaven,US,34.989,-90.0126,57.2,38,40,3.44,1619143976
92,jacksonville,US,30.3322,-81.6556,59,67,40,5.75,1619144122
93,merrill,US,45.1805,-89.6835,55.4,46,1,7.07,1619144240
94,thunder bay,CA,48.4001,-89.3168,41,75,1,3.44,1619144240
95,sioux lookout,CA,50.1001,-91.917,50,34,20,4.61,1619144240
96,coihaique,CL,-45.5752,-72.0662,42.8,87,40,5.75,1619144240
97,coquimbo,CL,-29.9533,-71.3436,59,88,90,2.3,1619144240
98,taltal,CL,-25.4,-70.4833,62.06,84,18,2.62,1619144240
99,chimbote,PE,-9.0853,-78.5783,65.97,89,7,7.65,1619144240
100,morropon,PE,-5.1822,-79.9689,76.57,71,95,4.65,1619144240
101,pedernales,EC,18.0384,-71.744,79.3,70,3,4.56,1619144241
102,la palma,PA,33.8464,-118.0467,61,72,90,11.5,1619144241
103,portobelo,PA,9.55,-79.65,80.01,99,67,7,1619144241
104,san andres,CO,12.5847,-81.7006,80.6,78,20,11.5,1619144241
105,bodden town,KY,19.2833,-81.25,80.6,78,0,6.91,1619144241
106,key largo,US,25.0865,-80.4473,78.01,84,3,16.11,1619144241
107,ormond beach,US,29.2858,-81.0559,64,72,1,12.66,1619144241
108,rockingham,US,42.9668,-71.0995,39,41,69,3,1619144241
109,uniontown,US,39.9001,-79.7164,44.6,45,90,6.91,1619144241
110,midland,CA,31.9974,-102.0779,62.6,63,1,18.41,1619144242
111,cochrane,CA,51.1834,-114.4687,25,74,90,6.91,1619144242
113,iqaluit,CA,63.7506,-68.5145,21.2,86,90,4.81,1619144242
114,clyde river,CA,70.4692,-68.5914,15.8,73,90,8.05,1619144242
115,rio gallegos,AR,-51.6226,-69.2181,44.6,93,40,2.3,1619144242
116,san carlos de bariloche,AR,-41.1456,-71.3082,50,62,75,11.5,1619144242
117,rengo,CL,-34.4167,-70.8667,55.4,88,90,2.3,1619144242
118,vicuna,CL,-30.0319,-70.7081,59,88,90,2.3,1619144243
119,iquique,CL,-20.2208,-70.1431,68,60,90,8.05,1619144243
120,azangaro,PE,-14.9167,-70.2167,41.27,86,99,2.1,1619144243
121,manoel urbano,BR,-8.8389,-69.2597,73.63,94,83,2.28,1619144243
122,benjamin constant,BR,-4.3831,-70.0311,77,94,0,1.66,1619144243
123,mitu,CO,1.1983,-70.1733,74.34,95,98,1.95,1619144243
125,carora,VE,10.1755,-70.0827,79.29,64,59,8.32,1619144243
126,oranjestad,AW,12.524,-70.027,80.6,74,20,19.57,1619144128
127,sosua,DO,19.7667,-70.5167,77,88,20,10.63,1619144244
128,cockburn town,TC,21.4612,-71.1419,78.17,79,2,17.05,1619144244
129,hamilton,BM,39.1834,-84.5333,42.01,70,1,4.12,1619144244
130,nantucket,US,41.2835,-70.0995,42.8,36,1,18.41,1619144244
131,madison,US,34.7334,-86.5667,51.01,61,1,2.08,1619144244
132,forestville,CA,38.8451,-76.875,46.99,39,75,3.44,1619144244
133,port-cartier,CA,50.0334,-66.8654,39.99,100,90,5.75,1619144244
134,narsaq,GL,60.9167,-46.05,42.8,45,40,2.3,1619144244
135,rawson,AR,-43.3002,-65.1023,57.34,53,0,5.28,1619144245
136,viedma,AR,-40.8135,-62.9967,57.94,76,66,6.71,1619144245
137,tres arroyos,AR,-38.3739,-60.2798,61.84,95,96,5.28,1619144245
138,chivilcoy,AR,-34.8957,-60.0167,66.99,66,100,3,1619144245
139,reconquista,AR,-29.15,-59.65,66.85,70,89,6.44,1619144245
140,presidencia roque saenz pena,AR,-26.7852,-60.4388,64.99,96,100,4.14,1619144245
141,mayor pablo lagerenza,PY,-19.9309,-60.7718,81.52,56,100,7,1619144245
142,pontes e lacerda,BR,-15.2261,-59.3353,77.13,70,87,2.17,1619144245
143,aripuana,BR,-9.1667,-60.6333,71.89,97,7,1.41,1619144246
144,novo aripuana,BR,-5.1206,-60.3797,73.99,97,100,2.55,1619144246
145,boa vista,BR,2.8197,-60.6733,82.4,65,75,13.8,1619144246
146,lethem,GY,3.3803,-59.7968,79.38,69,33,12.08,1619144246
147,rio claro,TT,-22.4114,-47.5614,62.01,88,0,6.91,1619144246
148,le vauclin,MQ,14.5452,-60.8388,78.8,73,20,8.05,1619144246
149,codrington,AG,-38.2667,141.9667,59.18,62,99,13.65,1619144247
150,the valley,AI,18.217,-63.0578,79,78,20,9.22,1619144247
151,saint george,BM,37.1041,-113.5841,73,14,1,9.22,1619144159
152,port hawkesbury,CA,45.6169,-61.3485,35.01,75,1,16.11,1619144248
154,saint-augustin,CA,51.226,-58.6502,40.41,96,100,20.76,1619144248
155,pangnirtung,CA,66.1451,-65.7125,18.01,81,79,6.22,1619144248
156,upernavik,GL,72.7868,-56.1549,16.39,89,100,4.45,1619144248
157,mar del plata,AR,-38.0023,-57.5575,66.99,94,99,4.61,1619144248
158,rocha,UY,-34.4833,-54.3333,62.11,91,100,10.65,1619144248
159,rio grande,BR,-32.035,-52.0986,66,90,5,17.09,1619144249
160,tramandai,BR,-29.9847,-50.1336,68.56,77,6,14.16,1619144249
161,carambei,BR,-24.9178,-50.0972,51.19,93,34,4.14,1619144249
162,cardoso,BR,-20.0819,-49.9142,65.53,53,0,7.94,1619144249
163,rubiataba,BR,-15.1644,-49.8033,64.08,66,21,2.42,1619144249
165,itupiranga,BR,-5.1347,-49.3267,73.99,94,100,2.46,1619144249
166,tucuma,BR,-0.1833,-50.05,74.98,92,100,2.8,1619144249
167,saint-georges,GF,12.0564,-61.7485,80.6,74,20,23.02,1619144250
168,sinnamary,GF,5.3833,-52.95,77.59,88,84,11.97,1619144250
169,bathsheba,BB,13.2167,-59.5167,78.8,65,40,20.71,1619144250
170,torbay,CA,47.6666,-52.7314,43,100,90,27.63,1619144250
171,bonavista,CA,48.6499,-53.1147,44.6,93,100,11.5,1619144250
172,saint anthony,CA,45.0205,-93.218,57.2,26,1,3.44,1619144250
173,paamiut,GL,61.994,-49.6678,31.96,82,20,4.54,1619144250
174,nuuk,GL,64.1835,-51.7216,37.4,60,0,3.44,1619144250
175,ilulissat,GL,69.2167,-51.1,26.6,68,24,1.14,1619144251
176,chuy,UY,-33.6971,-53.4616,65.46,82,98,11.48,1619143966
177,cidreira,BR,-30.1811,-50.2056,69.33,75,7,15.55,1619144251
178,laguna,BR,38.421,-121.4238,60.01,63,1,12.66,1619144251
179,arraial do cabo,BR,-22.9661,-42.0278,72.95,76,7,21.12,1619144251
180,serra,BR,-20.1286,-40.3078,73.4,78,40,8.05,1619144251
181,ibicui,BR,-14.8417,-39.9867,69.22,98,100,2.1,1619144251
182,jaguarari,BR,-10.2639,-40.1958,68.81,93,78,3.83,1619144251
183,boa viagem,BR,-5.1275,-39.7322,72.54,94,93,1.1,1619144252
184,acarau,BR,-2.8856,-40.12,77.92,83,12,5.06,1619144252
185,carutapera,BR,-1.195,-46.02,75.63,92,100,3.4,1619144252
186,ponta do sol,CV,32.6667,-17.1,62.01,83,100,3,1619144252
187,ribeira grande,PT,38.5167,-28.7,57.47,75,11,34.69,1619144252
188,nanortalik,GL,60.1432,-45.2371,35.42,84,55,5.93,1619144252
189,tasiilaq,GL,65.6145,-37.6368,28.4,54,75,13.8,1619144252
190,sao joao da barra,BR,-21.6403,-41.0511,69.33,83,0,11.07,1619144252
191,vila velha,BR,-20.3297,-40.2925,73.4,78,40,8.05,1619144252
192,caravelas,BR,-17.7125,-39.2481,72.95,89,93,4.59,1619144253
193,maceio,BR,-9.6658,-35.7353,75.2,100,40,3.44,1619144253
194,olinda,BR,-8.0089,-34.8553,78.8,78,40,3.44,1619144253
195,cabedelo,BR,-6.9811,-34.8339,77,88,0,2.3,1619144253
196,touros,BR,-5.1989,-35.4608,77,88,40,3.44,1619144253
197,sao filipe,CV,14.8961,-24.4956,71.85,74,37,11.59,1619144253
198,porto novo,CV,6.4965,2.6036,84.2,79,40,4.61,1619144253
199,lagoa,PT,39.05,-27.9833,56.28,79,5,39.08,1619144253
200,grindavik,IS,63.8424,-22.4338,44.6,81,90,28.77,1619144254
201,olafsvik,IS,64.8945,-23.7142,41.97,89,100,20.92,1619144254
204,jamestown,SH,42.097,-79.2353,30.2,86,75,12.66,1619144254
205,georgetown,SH,5.4112,100.3354,82.4,83,20,2.3,1619144255
206,goderich,SL,43.7501,-81.7165,33.8,60,0,3.44,1619144255
207,oussouye,SN,12.485,-16.5469,73.4,88,0,4.61,1619144255
208,dakar,SN,14.6937,-17.4441,66.2,94,40,16.11,1619144255
209,nouadhibou,MR,20.931,-17.0347,64.4,88,0,17.27,1619144255
210,los llanos de aridane,ES,28.6585,-17.9182,64.4,77,0,4.61,1619144255
211,vila franca do campo,PT,37.7167,-25.4333,59,72,40,26.46,1619144255
212,dingle,IE,10.9995,122.6711,89.11,55,100,11.97,1619144255
213,vestmannaeyjar,IS,63.4427,-20.2734,44.29,85,100,24.49,1619144256
216,hermanus,ZA,-34.4187,19.2345,55,92,0,5.01,1619144256
217,cape town,ZA,-33.9258,18.4232,57,100,20,11.5,1619144256
218,harper,LR,4.375,-7.7169,80.53,85,100,5.88,1619144256
219,buchanan,LR,5.8808,-10.0467,75.2,94,75,8.93,1619144256
220,tokonou,GN,9.65,-9.7833,72.52,85,99,1.43,1619144256
221,nioro,ML,13.35,-15.75,78.44,36,65,8.72,1619144257
222,atar,MR,20.5169,-13.0499,75.96,14,0,7.45,1619144257
223,tiznit,MA,29.5833,-9.5,57.6,88,33,4.65,1619144257
225,peniche,PT,39.3558,-9.3811,59,82,100,5.99,1619144257
226,carballo,ES,43.213,-8.691,55.99,92,100,5.01,1619144258
227,skibbereen,IE,51.55,-9.2667,44.6,81,20,10.36,1619144258
228,ballina,IE,-28.8667,153.5667,69.8,46,0,11.5,1619144258
230,hofn,IS,64.2539,-15.2082,37.92,77,100,1.97,1619144258
231,husavik,IS,66.0449,-17.3389,35.6,100,0,2.98,1619144258
232,saldanha,ZA,-33.0117,17.9442,57.2,94,0,3.44,1619144258
233,luderitz,NA,-26.6481,15.1594,65.82,66,16,6.91,1619144258
234,port-gentil,GA,-0.7193,8.7815,76.86,85,100,9.73,1619144259
235,takoradi,GH,4.8845,-1.7554,80.78,87,99,7.43,1619144020
236,accra,GH,5.556,-0.1969,82.4,89,0,10.36,1619144259
237,yendi,GH,9.4427,-0.0099,83.61,53,72,5.97,1619144259
238,gorom-gorom,BF,14.4439,-0.2361,87.66,31,46,6.89,1619144259
239,tessalit,ML,20.1986,1.0114,80.89,8,0,8.21,1619144259
240,adrar,DZ,20.5022,-10.0711,75,13,0,11.34,1619144259
242,burriana,ES,39.889,-0.085,54,90,88,3.09,1619144260
243,libourne,FR,44.9167,-0.25,52,76,0,5.75,1619144260
244,fecamp,FR,49.7579,0.3746,41,81,0,9.22,1619144260
245,scarborough,GB,54.2797,-0.4044,42.01,44,99,1.01,1619144260
246,lerwick,GB,60.1545,-1.1494,44.6,65,100,6.91,1619144261
247,brae,GB,60.3964,-1.353,44.6,65,100,6.91,1619144261
248,raudeberg,NO,61.9875,5.1352,35.01,91,98,10.22,1619144261
249,roald,NO,62.5833,6.1333,37.4,65,90,3.44,1619144261
250,walvis bay,NA,-22.9575,14.5053,64.4,72,47,3.44,1619144261
251,opuwo,NA,-18.0607,13.84,67.41,38,23,5.23,1619144261
252,namibe,AO,-15.1961,12.1522,78.57,83,29,1.83,1619144261
253,luanda,AO,-8.8368,13.2343,73.4,88,75,9.22,1619144143
254,mayumba,GA,-3.432,10.6554,75.6,87,100,5.23,1619144261
255,kango,GA,0.1943,10.0951,72.21,98,100,2.35,1619144262
256,nkongsamba,CM,4.9547,9.9404,67.78,98,100,2.1,1619144262
257,bauchi,NG,10.5,10,81.59,55,100,4.99,1619144205
258,goure,NE,13.9835,10.2704,82.71,11,54,5.35,1619144262
259,arlit,NE,18.7369,7.3853,79.52,8,9,3.36,1619144262
260,gat,LY,31.61,34.7642,61,82,40,3.44,1619144262
261,nalut,LY,30.3333,10.85,73.33,24,11,7.83,1619144262
263,tortoli,IT,39.9256,9.6572,55.4,88,90,8.05,1619144263
264,cremona,IT,45.2333,9.9333,53.01,84,21,1.01,1619144263
265,werneck,DE,49.9833,10.1,35.01,82,1,2.71,1619144263
266,guderup,DK,54.9898,9.8717,41,81,5,11.5,1619144263
267,vikersund,NO,59.9659,9.995,33.01,65,53,2.93,1619144263
269,sorland,NO,67.667,12.6934,36.18,53,58,15.97,1619144264
270,longyearbyen,SJ,78.2186,15.6401,15.8,67,75,4.61,1619144228
271,bredasdorp,ZA,-34.5322,20.0403,51.8,93,3,4.61,1619144264
272,calvinia,ZA,-31.4707,19.776,61.9,50,0,2.13,1619144264
273,aranos,NA,-24.1333,19.1167,62.58,35,86,9.64,1619144264
274,grootfontein,NA,-19.5667,18.1167,48.2,81,0,1.14,1619144264
275,menongue,AO,-14.6585,17.691,60.49,72,50,2.77,1619144264
276,saurimo,AO,-9.6608,20.3916,63.54,94,14,3.6,1619144264
277,ilebo,CD,-4.3167,20.5833,70.99,94,88,1.52,1619144265
278,boende,CD,-0.2167,20.8667,71.74,87,73,3.04,1619144265
279,kouango,CF,4.9934,19.9619,72.39,88,100,4.47,1619144265
280,am timan,TD,11.0297,20.2827,89.22,29,94,3.53,1619144265
281,biltine,TD,14.5333,20.9167,85.55,15,100,11.48,1619144265
282,faya,TD,18.3851,42.4509,57.2,41,0,1.81,1619144265
283,awjilah,LY,29.1081,21.2869,69.49,22,11,13.04,1619144265
284,ajdabiya,LY,30.7554,20.2263,70.09,22,21,16.06,1619144265
285,methoni,GR,36.8197,21.7049,59,71,91,1.14,1619144266
286,delvine,AL,39.9511,20.0978,55.99,89,100,1.01,1619144266
287,indija,RS,20,77,86.43,15,49,2.82,1619144157
288,wieliczka,PL,49.9874,20.0647,39,69,11,7.4,1619144266
290,maarianhamina,FI,60.0973,19.9348,35.6,93,75,12.66,1619144266
291,skelleftea,SE,64.7507,20.9528,35.01,64,90,16.11,1619144266
292,lyngseidet,NO,69.5763,20.2189,32,80,75,6.91,1619144266
293,skjervoy,NO,70.0311,20.9714,36.18,60,100,18.16,1619144266
294,kruisfontein,ZA,-34.0033,24.7314,59,93,0,1.01,1619144267
295,port elizabeth,ZA,-33.918,25.5701,64.4,88,0,16.11,1619144267
296,port alfred,ZA,-33.5906,26.891,66.47,81,0,19.75,1619144267
297,east london,ZA,-33.0153,27.9116,64.94,82,8,11.32,1619144267
298,richmond,ZA,37.5538,-77.4603,46.99,42,20,4.61,1619144267
299,lydenburg,ZA,-25.0978,30.4597,48,86,26,0.58,1619144267
300,shurugwi,ZW,-19.6702,30.0059,51.1,90,0,1.61,1619144267
301,luangwa,ZM,-15.6167,30.4167,63.55,91,1,3.2,1619144267
302,luwingu,ZM,-10.2621,29.9271,57.97,98,36,4.21,1619144268
303,mwandiga,TZ,-4.83,29.6581,68,100,20,5.41,1619144268
304,kilembe,UG,0.2,30,59.25,91,99,4.05,1619144268
305,maridi,SD,4.9158,29.4742,66.2,97,83,1.32,1619144268
307,bara,SD,10.3744,10.7288,83.95,58,78,10.98,1619144268
308,marawi,SD,7.9986,124.2928,84.99,71,30,8.01,1619144268
309,sohag,EG,26.557,31.6948,71.6,24,0,4.61,1619144268
310,madinat sittah uktubar,EG,29.8167,31.05,61,82,0,10.36,1619144269
311,kumluca,TR,36.3703,30.2869,63.55,48,7,4.21,1619144269
312,bozuyuk,TR,39.9078,30.0367,48,93,0,4.03,1619144269
313,sulina,RO,45.1559,29.6536,51.21,83,98,12.19,1619144269
314,fastiv,UA,50.0767,29.9177,48.2,93,83,8.95,1619144269
315,senno,BY,59.5336,33.9167,38.5,94,97,5.37,1619144269
316,lisiy nos,RU,60.0169,30.0201,44.01,81,20,6.71,1619144269
317,kostomuksha,RU,64.571,30.5767,31.21,98,100,5.75,1619144269
318,vadso,NO,70.0744,29.7487,32,100,90,9.22,1619144269
319,berlevag,NO,70.8578,29.0864,32.92,69,89,6.22,1619144270
320,mehamn,NO,71.0357,27.8492,32.18,79,97,0.54,1619144270
322,margate,ZA,51.3813,1.3862,43,80,6,1.99,1619144270
323,richards bay,ZA,-28.783,32.0377,65.75,90,65,6.73,1619144270
324,beloha,MG,-25.1667,45.05,68.54,86,0,11.68,1619144270
326,mocuba,MZ,-16.8392,36.9856,62.98,96,0,2.93,1619144271
328,lindi,TZ,-10,39.7167,75.2,94,20,12.66,1619144272
329,micheweni,TZ,-4.9667,39.8333,78.57,84,93,13.18,1619144272
330,garissa,KE,-0.4536,39.6401,78.3,78,100,11.16,1619144272
331,shakiso,ET,5.75,38.9167,55.35,97,100,2.06,1619144272
332,abomsa,ET,9.9833,39.9833,69.98,55,99,3.78,1619144272
333,ginda,ER,30.6945,78.4932,54.19,62,88,5.01,1619144272
334,mecca,SA,21.4267,39.8261,82.56,38,1,4.29,1619144272
335,umm lajj,SA,25.0213,37.2685,79.03,66,70,7,1619144272
336,sakakah,SA,29.9697,40.2064,77,18,0,6.91,1619144273
337,abu kamal,SY,34.4506,40.9171,66.18,30,91,8.5,1619144273
338,bayburt,TR,40.2589,40.2278,39.45,82,5,1.36,1619144273
339,novolabinskaya,RU,45.1096,39.894,42.8,93,40,2.24,1619144273
340,mitrofanovka,RU,49.9708,39.6939,45.25,80,93,3.91,1619144273
341,spas-klepiki,RU,55.1347,40.1767,43,94,13,7.14,1619144273
342,kharovsk,RU,59.9642,40.1912,37.98,95,32,6.96,1619144273
343,severodvinsk,RU,64.5635,39.8302,37.4,87,75,4.47,1619144273
344,ostrovnoy,RU,68.0531,39.5131,33.12,97,94,8.93,1619144274
346,vardo,NO,70.3705,31.1107,35.22,66,100,14.32,1619144274
350,vangaindrano,MG,-23.35,47.6,69.4,87,22,0.81,1619144275
351,mahanoro,MG,-19.9,48.8,71.4,95,96,4.61,1619144275
352,antalaha,MG,-14.9003,50.2788,73.78,91,88,7.29,1619144275
353,ambilobe,MG,-13.2,49.05,72.45,88,99,3.53,1619144276
354,victoria,SC,22.2855,114.1577,84,73,0,4.38,1619144082
355,mogadishu,SO,2.0371,45.3438,80.83,81,100,8.14,1619144276
356,hobyo,SO,5.3505,48.5268,83.53,69,100,10.2,1619144276
357,bandarbeyla,SO,9.4942,50.8122,81.39,77,86,2.82,1619144276
358,bereda,SO,43.2686,-7.5406,48.99,100,59,1.63,1619144276
359,abu samrah,QA,35.3029,37.1841,54.5,43,0,2.33,1619144276
360,umm bab,QA,25.2142,50.8072,81,38,1,3.44,1619144276
362,tafresh,IR,34.692,50.013,60.51,36,99,2.89,1619144277
363,zig,AZ,40.127,-92.7663,48.99,53,90,6.69,1619144277
364,fort-shevchenko,KZ,44.5086,50.263,53.92,89,63,11.59,1619144277
365,ozinki,RU,51.1786,49.6769,39.36,94,100,7.14,1619144277
366,bazarnyye mataki,RU,54.8833,49.9333,38.34,93,83,9.15,1619144277
367,raduzhnyy,RU,62.0961,77.475,30.58,81,20,11.16,1619144277
368,koslan,RU,63.4564,48.8989,39.78,91,100,8.21,1619144277
369,saint-philippe,RE,-21.3585,55.7679,77,73,90,13.8,1619144277
370,souillac,MU,-20.5167,57.5167,71.6,100,75,3.44,1619144278
372,cap malheureux,MU,-19.9842,57.6142,73.99,84,100,3,1619144278
374,salalah,OM,17.0151,54.0924,78.8,73,0,3.44,1619144278
375,sur,OM,22.5667,59.5289,83.57,38,0,6.8,1619144278
376,chabahar,IR,25.2919,60.643,81.32,72,8,3.96,1619144278
377,zabol,IR,32.25,67.25,53.49,26,0,8.01,1619144278
378,torbat-e jam,IR,35.244,60.6225,58.41,20,40,4.59,1619144279
379,hazorasp,UZ,41.3194,61.0742,50,34,0,6.91,1619144279
381,dombarovskiy,RU,50.7587,59.5386,45.52,62,100,12.17,1619144279
382,turgoyak,RU,55.15,60.1183,41.59,82,100,7.76,1619144279
383,volchansk,RU,59.9378,60.081,40.57,93,100,6.13,1619144279
384,inta,RU,66.0317,60.1659,38.03,93,100,15.95,1619144279
386,dikson,RU,73.5069,80.5464,32.36,92,100,23.58,1619144280
387,mahebourg,MU,-20.4081,57.7,71.6,100,75,3.44,1619144280
388,bambous virieux,MU,-20.3428,57.7575,73.99,100,75,3.44,1619144280
389,quatre cocos,MU,-20.2078,57.7625,73.99,100,75,3.44,1619144280
390,hithadhoo,MV,-0.6,73.0833,82.85,71,80,6.29,1619144280
391,thinadhoo,MV,0.5333,72.9333,83.03,61,23,8.84,1619144104
392,eydhafushi,MV,5.1033,73.0708,82.6,75,29,10.96,1619144106
393,kavaratti,IN,10.5669,72.642,83.59,67,9,4.21,1619144281
395,veraval,IN,20.9,70.3667,80.13,75,100,10.02,1619144281
396,mithi,PK,24.7318,69.7981,80.37,64,0,16.44,1619144281
397,barkhan,PK,29.8977,69.5256,64.54,54,0,14.18,1619144281
398,tagab,AF,34.855,69.6492,46.4,31,0,6.91,1619144281
399,chkalovsk,TJ,56.7647,43.2433,44.6,70,20,6.71,1619144281
401,astana,KZ,51.1801,71.446,30.2,69,0,4.47,1619144137
402,bulaevo,KZ,54.9056,70.4439,35.69,53,84,12.84,1619144282
403,gornopravdinsk,RU,60.05,69.9,36.01,70,100,10.56,1619144282
404,yar-sale,RU,66.8333,70.8333,33.35,89,100,14.61,1619144282
405,busselton,AU,-33.65,115.3333,66.99,67,44,4,1619144282
406,matara,LK,5.9485,80.5353,79.54,85,24,8.39,1619144282
407,weligama,LK,5.9667,80.4167,79.88,84,20,8.16,1619144282
408,valvedditturai,LK,9.8167,80.1667,84.47,71,54,8.25,1619144283
409,kavali,IN,14.9167,79.9833,83.41,71,96,5.44,1619144283
410,mul,IN,20.0667,79.6667,88.32,30,21,6.02,1619144283
411,khajuraho,IN,24.85,79.9333,84.6,23,0,7.23,1619144283
412,bageshwar,IN,29.85,79.7667,60.84,56,15,1.12,1619144283
413,leh,IN,34.1667,77.5833,26.08,75,92,3.36,1619144283
414,aksu,CN,41.1231,80.2644,50.22,25,4,9.31,1619144283
415,sarkand,KZ,45.41,79.9186,27.79,61,69,2.57,1619144283
416,semey,KZ,50.4111,80.2275,33.8,44,0,15.66,1619144283
417,kargat,RU,55.1956,80.2811,35.31,70,9,8.21,1619144284
418,kargasok,RU,59.0556,80.8572,31.8,78,11,4.21,1619144284
419,urengoy,RU,65.9667,78.3667,30.63,85,56,16.67,1619144284
420,tazovskiy,RU,67.4667,78.7,30.02,86,95,17.18,1619144284
421,albany,AU,42.6001,-73.9662,37.99,42,14,13.85,1619144284
422,carnarvon,AU,-24.8667,113.6333,78.8,34,98,8.05,1619144284
423,bengkulu,ID,-3.8004,102.2655,80.47,67,85,1.03,1619144268
424,meulaboh,ID,4.1363,96.1285,80.28,80,97,2.82,1619144284
425,banda aceh,ID,5.5577,95.3222,83.3,71,98,9.98,1619144285
426,port blair,IN,11.6667,92.75,80.6,89,40,5.5,1619144285
427,mathbaria,BD,22.2876,89.9593,87.49,51,46,3.94,1619144285
428,sherpur,BD,25.0188,90.0175,81.72,52,0,5.08,1619144285
429,lasa,CN,46.6166,10.7002,45,87,0,5.75,1619144105
430,korla,CN,41.7597,86.1469,42.8,46,100,15.08,1619144285
431,urumqi,CN,43.801,87.6005,39.2,48,0,11.18,1619144285
432,mugur-aksy,RU,50.35,90.5,18.63,81,100,4.5,1619144285
434,teya,RU,60.3778,92.6267,32.45,81,32,1.41,1619144286
435,turukhansk,RU,65.8167,87.9833,29.52,91,67,12.1,1619144286
436,talnakh,RU,69.4865,88.3972,32.23,98,100,14.18,1619144286
438,payakumbuh,ID,-0.2202,100.6308,73.71,85,100,1.45,1619144286
440,ko samui,TH,9.5357,99.9357,87.8,62,20,10.36,1619144286
441,doembang nangbuat,TH,14.8333,100.1,91,57,100,5.32,1619144287
442,chiang rai,TH,19.9167,99.9167,84.99,65,1,3.44,1619144287
443,dali,CN,25.7,100.1833,70.61,41,22,5.91,1619144287
444,yaan,CN,7.3833,8.5667,80.38,76,100,8.72,1619143995
445,xining,CN,36.6167,101.7667,54.61,66,100,2.71,1619144065
446,zhangye,CN,38.9342,100.4517,60.67,26,78,18.97,1619144287
447,hovd,MN,48.0056,91.6419,33.48,30,100,4.36,1619144287
448,moron,MN,-34.6534,-58.6198,72,85,90,4,1619144287
449,atagay,RU,55.1033,99.3875,34.02,60,31,3.8,1619144288
450,kodinsk,RU,58.6881,99.1844,34.32,76,31,4.18,1619144288
451,tura,RU,25.5198,90.2201,81.23,42,0,3.47,1619144288
452,khatanga,RU,71.9667,102.5,27.43,92,99,15.14,1619144288
453,geraldton,AU,-28.7667,114.6,78.8,34,100,5.75,1619144288
454,bambanglipuro,ID,-7.95,110.2833,82.4,68,25,5.48,1619144288
455,mlonggo,ID,-6.5333,110.7,86,62,20,2.3,1619144288
456,pontianak,ID,-0.0333,109.3333,82.4,78,20,2.95,1619144288
457,sibu,MY,2.3,111.8167,86,70,20,3.44,1619144288
459,quang ngai,VN,15.1167,108.8,87.3,62,65,5.73,1619144101
460,lingao,CN,19.9103,109.6859,82.8,73,5,2.77,1619144289
461,guilin,CN,25.2819,110.2864,73.4,83,90,4.47,1619144289
462,enshi,CN,30.3,109.4833,67.19,88,100,0.92,1619144289
463,weinan,CN,34.5036,109.5089,62.01,77,90,15.66,1619144289
464,dongsheng,CN,39.8161,109.9776,60.49,40,100,18.86,1619144289
465,darhan,MN,49.4867,105.9228,28.02,90,100,12.82,1619144289
466,krasnyy chikoy,RU,50.3643,108.7512,35.87,72,100,5.17,1619144290
467,kurumkan,RU,54.3,110.3,34.66,31,8,4.21,1619144290
468,yerbogachen,RU,61.2767,108.0108,30.92,79,100,13.06,1619144290
469,aykhal,RU,66,111.5,23.9,88,100,25.86,1619144290
470,saskylakh,RU,71.9167,114.0833,9.19,93,95,7.2,1619144290
471,new norfolk,AU,-42.7826,147.0587,57,70,100,5.01,1619144290
472,northam,AU,51.0333,-4.2167,44.01,77,0,1.01,1619144290
473,port hedland,AU,-20.3167,118.5667,89.6,12,0,23.02,1619144290
474,broome,AU,42.2506,-75.833,34,80,90,11.5,1619144290
475,waingapu,ID,-9.6567,120.2641,82.11,65,8,4.34,1619144291
476,sinjai,ID,-5.1241,120.253,84.58,71,40,4.81,1619144291
477,palu,ID,-0.8917,119.8707,89.91,56,71,1.7,1619144291
478,parangan,PH,5.0839,119.9383,83.8,67,59,6.85,1619144291
479,osmena,PH,10.5208,119.9258,85.05,66,81,6.58,1619144292
480,san narciso,PH,15.0143,120.0803,89.6,70,40,8.05,1619144292
481,davila,PH,18.4726,120.5763,80.6,74,20,6.91,1619144292
483,fuyang,CN,32.9,115.8167,64.99,67,52,7.9,1619144115
484,rizhao,CN,35.4275,119.4553,57.99,72,56,9.51,1619144293
485,qinhuangdao,CN,39.9317,119.5883,51.67,90,100,15.66,1619144260
487,hailar,CN,49.2,119.7,47.37,55,96,15.77,1619144251
488,tupik,RU,54.4253,119.9327,30.79,42,3,3.49,1619144294
489,khani,RU,41.9563,42.9566,48.2,93,75,2.3,1619144294
490,verkhnevilyuysk,RU,63.4453,120.3167,29.66,89,100,11.7,1619144294
491,zhigansk,RU,66.7697,123.3711,23.49,87,100,10.92,1619144294
492,hobart,AU,-42.8794,147.3294,57.2,47,40,10.36,1619144149
493,mount gambier,AU,-37.8333,140.7667,59,58,75,13.8,1619144294
494,port lincoln,AU,-34.7333,135.8667,64.67,53,41,10.36,1619144295
495,flinders,AU,-34.5833,150.8552,72,41,0,4,1619144295
496,yulara,AU,-25.2406,130.9889,71.6,35,0,12.66,1619144295
497,kununurra,AU,-15.7667,128.7333,89.6,31,65,14.97,1619144295
498,port keats,AU,-14.25,129.55,90.75,45,25,11.23,1619144295
500,amahai,ID,-3.3333,128.9167,85.03,70,60,4.61,1619144296
501,sorong,ID,-0.8833,131.25,84.22,69,58,2.98,1619144296
502,pundaguitan,PH,6.3711,126.1689,83.52,70,86,5.08,1619144296
503,bacolod,PH,10.6667,122.95,85.95,66,91,14.76,1619144297
504,san policarpo,PH,12.1791,125.5072,85.71,67,45,4.09,1619144297
505,itoman,JP,26.1247,127.6694,69.8,88,75,25.32,1619144297
506,gushikawa,JP,26.3544,127.8686,69.8,94,75,27.63,1619144080
507,kaseda,JP,31.4167,130.3167,68,60,75,14.97,1619144297
508,fukuma,JP,33.7667,130.4667,75.99,28,0,8.05,1619144297
509,khasan,RU,42.4308,130.6434,48.69,68,100,4.41,1619144297
510,chaihe,CN,44.7667,129.7,61.52,51,100,2.55,1619144297
511,novobureyskiy,RU,49.798,129.8774,53.02,42,70,12.48,1619144297
514,namtsy,RU,62.7161,129.6658,26.6,46,0,11.18,1619144298
515,tiksi,RU,71.6872,128.8694,17.11,84,100,4.18,1619144298
516,portland,AU,45.5234,-122.6762,63,51,8,1.99,1619144299
517,murray bridge,AU,-35.1167,139.2667,63,69,77,10.04,1619144136
518,broken hill,AU,-31.95,141.4333,62.6,48,40,4.61,1619144299
519,mount isa,AU,-20.7333,139.5,80.6,18,7,13.8,1619144299
520,alyangula,AU,-13.8483,136.4192,86,62,90,9.22,1619144299
521,merauke,ID,-8.4667,140.3333,85.62,69,52,3.53,1619144299
522,kiunga,PG,-6.1219,141.2906,90.59,56,83,1.21,1619144299
523,vanimo,PG,-2.6741,141.3028,85.62,67,100,4.34,1619144299
524,airai,PW,-8.9266,125.4092,74.57,49,32,1.99,1619144300
525,naze,JP,28.3667,129.4833,73.4,73,75,18.41,1619144300
526,shingu,JP,33.7333,135.9833,68,60,40,9.22,1619144241
527,shimoda,JP,34.6667,138.95,59,58,40,14.97,1619144300
528,kamogawa,JP,35.1,140.1,62.6,51,40,8.05,1619144300
529,tenno,JP,39.9,139.9667,60.8,41,0,5.75,1619144300
530,wakkanai,JP,45.4094,141.6739,44.6,87,40,9.22,1619144152
531,vysokogornyy,RU,50.1167,139.15,54.52,83,100,3.78,1619144301
532,mnogovershinnyy,RU,53.9353,139.9242,31.51,95,100,4.32,1619144301
533,solnechnyy,RU,50.7214,136.6319,60.64,46,100,2.1,1619144301
534,ust-nera,RU,64.5667,143.2,18.88,75,86,4.88,1619144301
535,deputatskiy,RU,69.3,139.9,9.63,86,97,2.06,1619144301
537,bluff,NZ,-46.6,168.3333,55,85,100,10,1619144301
538,lakes entrance,AU,-37.8811,147.981,64.99,49,95,3,1619144301
539,goulburn,AU,-34.75,149.7167,61,52,0,16.24,1619144251
540,narrabri,AU,-30.3167,149.7833,70,30,0,9.22,1619144302
541,biloela,AU,-24.4167,150.5,71.92,30,71,13.27,1619144302
542,mackay,AU,-21.15,149.2,73.4,73,90,12.66,1619144101
543,samarai,PG,-10.6167,150.6667,83.19,74,99,4.29,1619144302
545,kimbe,PG,-5.5502,150.1429,86.05,68,99,5.12,1619144302
546,kavieng,PG,-2.5744,150.7967,82.44,75,93,6.51,1619144302
547,lorengau,PG,-2.0226,147.2712,84.16,71,100,7.07,1619144302
548,katsuura,JP,35.1333,140.3,63,51,40,8.05,1619144303
549,hasaki,JP,35.7333,140.8333,64,44,20,9.22,1619144303
550,kamaishi,JP,39.2667,141.8833,62.6,31,0,9.22,1619144303
552,vostok,RU,46.4856,135.8833,62.76,29,100,7.72,1619144102
553,magadan,RU,59.5667,150.8,31.26,98,100,8.05,1619144303
554,arman,RU,59.7,150.1667,32.11,98,100,4.72,1619144303
555,zyryanka,RU,65.75,150.85,22.3,77,100,11.23,1619144303
556,chokurdakh,RU,70.6333,147.9167,6.58,90,89,5.23,1619144304
557,tuatapere,NZ,-46.1333,167.6833,55,85,100,10,1619144304
558,te anau,NZ,-45.4167,167.7167,51.64,81,100,6.58,1619144304
559,port macquarie,AU,-31.4333,152.9167,70,41,0,1.99,1619144304
560,byron bay,AU,-28.65,153.6167,68,49,0,12.66,1619144066
561,koumac,NC,-20.5667,164.2833,81.59,70,99,7.65,1619144304
562,poum,NC,-20.2333,164.0167,79,77,100,5.91,1619144304
563,kirakira,SB,-10.4544,161.9205,84.96,72,100,7.56,1619144304
564,honiara,SB,-9.4333,159.95,87.55,66,37,7.63,1619144151
565,buala,SB,-8.145,159.5921,85.57,69,96,6.8,1619144305
566,kieta,PG,-6.2167,155.6333,80.67,82,100,2.17,1619144305
567,namatanai,PG,-3.6667,152.4333,81.37,78,66,3.42,1619144305
568,butaritari,KI,3.0707,172.7902,82.76,73,98,9.24,1619144305
569,severo-kurilsk,RU,50.6789,156.125,35.98,92,73,4.18,1619144305
570,petropavlovsk-kamchatskiy,RU,53.0452,158.6483,46.4,61,20,8.95,1619144305
571,milkovo,RU,54.7167,158.6167,43.02,67,74,2.24,1619144305
572,palana,RU,59.1167,159.9667,30.7,99,100,3.56,1619144306
573,evensk,RU,61.95,159.2333,29.39,95,100,4.05,1619144306
574,cherskiy,RU,68.75,161.3,18.09,86,92,7.05,1619144306
575,kaitangata,NZ,-46.2817,169.8464,59,72,100,1.99,1619144306
576,ranfurly,NZ,-45.1333,170.1,57.99,54,100,1.01,1619144306
577,westport,NZ,41.1415,-73.3579,41,55,68,15.26,1619144306
578,ahipara,NZ,-35.1667,173.1667,68.4,72,93,7.78,1619144306
579,vao,NC,-22.6667,167.4833,74.64,73,83,8.43,1619144306
580,isangel,VU,-19.55,169.2667,82.9,72,66,6.69,1619144306
581,sola,VU,-13.8833,167.55,86,74,75,2.3,1619144307
582,lata,SB,40.1629,-8.3327,57.99,89,100,5.1,1619144307
585,nikolskoye,RU,59.7035,30.7861,43,81,20,6.71,1619144308
586,tilichiki,RU,60.4667,166.1,28.8,85,14,2.93,1619144308
588,pevek,RU,69.7008,170.3133,23.4,75,19,6.69,1619144308
589,dunedin,NZ,-45.8742,170.5036,62.01,63,100,5.99,1619144308
590,waipawa,NZ,-41.4122,175.5153,64.4,68,90,17.27,1619144308
591,tolaga bay,NZ,-38.3667,178.3,67.33,61,99,7.27,1619144308
593,ngunguru,NZ,-35.6167,174.5,66.78,74,100,10.54,1619144309
594,russell,NZ,32.3502,-85.1999,55.4,71,1,2.35,1619144309
595,asau,TV,46.4333,26.4,42.01,60,83,2.3,1619144309
597,beringovskiy,RU,63.05,179.3167,29.05,71,99,8.25,1619144309
598,leningradskiy,RU,69.3833,178.4167,34.57,88,100,3.96,1619144310
